WELL NAME,LICENCE NUMBER,MINERAL RIGHTS,GROUND ELEVATION,UID,SURFACE CO-ORDINATES,BOARD FIELD CENTRE,PROJECTED DEPTH,DRILLING OPERATION,WELL PURPOSE,WELL TYPE,SUBSTANCE,DATE,LAHEE CLASSIFICATION,FIELD,TERMINATING ZONE,LICENSEE,SURFACE LOCATION,ATS,WEEK,MONTH,YEAR,ConvDF,Lat,Long
CNRL 13C HZ1GP LIND 13-30-56-3,0497678,ALBERTA CROWN,616.5M,100/13-30-056-03W4/00  S   60.0M  E,230.1M,BONNYVILLE,676.0,HORIZONTAL,NEW,PRODUCTION (SCHEME),CRUDE BITUMEN,2020-02-10,DEV (NC),LINDBERGH,GENERAL PETROLEUM MBR,CANADIAN NATURAL RESOURCES LIMITED,13-31-056-03W4,31056034,7,2,2020,31056034,53.88227082,-110.426354
CNRL 13D HZ3GP LIND 13-30-56-3,0497679,ALBERTA CROWN,616.3M,102/13-30-056-03W4/00  S   60.0M  E,245.1M,BONNYVILLE,652.0,HORIZONTAL,NEW,PRODUCTION (SCHEME),CRUDE BITUMEN,2020-02-10,DEV (NC),LINDBERGH,GENERAL PETROLEUM MBR,CANADIAN NATURAL RESOURCES LIMITED,13-31-056-03W4,31056034,7,2,2020,31056034,53.88227082,-110.426354
BOW RIVER MHZ 2A10 PROVOST 10-2-39-2,0497680,ALBERTA CROWN,666.8M,102/10-02-039-02W4/00  N  224.8M  E,450.3M,WAINWRIGHT,2090.0,HORIZONTAL,NEW,PRODUCTION,CRUDE OIL,2020-02-10,DEV (NC),PROVOST,GENERAL PETROLEUM MBR,BOW RIVER ENERGY LTD.,03-12-039-02W4,12039024,7,2,2020,12039024,52.3393171,-110.1489962
VESTA TINDA 4-18-37-28,0497681,BOTH,940.7M,100/04-18-037-28W4/00  N  576.9M  E,420.2M,RED DEER,6600.0,HORIZONTAL,NEW,PRODUCTION,CRUDE OIL,2020-02-10,DEV (C),TINDASTOLL,DUVERNAY FM,VESTA ENERGY LTD.,06-30-037-28W4,30037284,7,2,2020,30037284,52.20972638,-113.9803044
VESTA TINDA 3-18-37-28,0497682,BOTH,940.8M,102/03-18-037-28W4/00  N  576.5M  E,430.2M,RED DEER,6600.0,HORIZONTAL,NEW,PRODUCTION,CRUDE OIL,2020-02-10,DEV (C),TINDASTOLL,DUVERNAY FM,VESTA ENERGY LTD.,06-30-037-28W4,30037284,7,2,2020,30037284,52.20972638,-113.9803044
VESTA 03 WELL TINDA 3-18-37-28,0497683,BOTH,940.8M,103/03-18-037-28W4/00  N  576.9M  E,440.2M,RED DEER,6600.0,HORIZONTAL,NEW,PRODUCTION,CRUDE OIL,2020-02-10,DEV (C),TINDASTOLL,DUVERNAY FM,VESTA ENERGY LTD.,06-30-037-28W4,30037284,7,2,2020,30037284,52.20972638,-113.9803044
CABOT ENERGY 103 RAINBOW 12-6-111-6,0497684,ALBERTA CROWN,513.9M,103/12-06-111-06W6/00  S  137.7M  E,508.6M,HIGH LEVEL,1700.0,DIRECTIONAL,NEW,PRODUCTION,CRUDE OIL,2020-02-10,DEV (NC),RAINBOW,KEG RIVER FM,CABOT ENERGY INC.,14-06-111-06W6,6111066,7,2,2020,6111066,58.60889824,-118.98670030000001
PARA WAPITI 15-8-66-6,0497685,ALBERTA CROWN,817.1M,100/15-08-066-06W6/00  S   26.5M  W,628.9M,GRANDE PRAIRIE,4214.0,DIRECTIONAL,NEW,DISPOSAL,WATER,2020-02-10,OTH (NC),WAPITI,LEDUC FM,PARAMOUNT RESOURCES LTD.,15-08-066-06W6,8066066,7,2,2020,8066066,54.697973399999995,-118.8562418
