WELL ID,WELL NAME,LICENCE,CONTRACTOR BA ID,CONTRACTOR NAME,RIG NUMBER,ACTIVITY DATE,FIELD CENTRE,BA ID,LICENSEE,NEW PROJECTED TOTAL DEPTH,ACTIVITY TYPE,DATE,ATS,WEEK,MONTH,YEAR,ConvDF,Lat,Long
02/15-22-015-14W4/0,TXNE 15C-16 HZ ALDSON 15-22-15-14,0498869,A1TW,Bonanza Drilling Inc.,6,21 Dec 2020 10:15:00 PM,Medicine Hat,A7NW,Torxen Energy Ltd.,,Drill To LD,2020-12-22,22015144,52,12,2020,22015144,50.27356177,-111.83759380000001
00/03-28-016-13W4/0,TXNE 2B-34 HZ BANTRY 3-28-16-13,0499002,A1TW,Bonanza Drilling Inc.,8,22 Dec 2020 12:30:00 AM,Medicine Hat,A7NW,Torxen Energy Ltd.,,Drill To LD,2020-12-22,28016134,52,12,2020,28016134,50.37559395,-111.7230317
02/01-28-037-28W4/0,VESTA 103 CYGNET 1-28-37-28,0498877,A6EC,Twilight Drilling Ltd.,3,22 Dec 2020 10:30:00 AM,Red Deer,A0L1,Vesta Energy Ltd.,,Drill To LD,2020-12-22,28037284,52,12,2020,28037284,52.20928414,-113.9326241
00/16-32-050-16W5/0,CVE 100 HZ EDSON 16-32-50-16,0498414,0Z41,Ensign Drilling Inc.,557,21 Dec 2020 07:30:00 PM,Drayton Valley,A5D4,Cenovus Energy Inc.,,Drill To LD,2020-12-22,32050165,52,12,2020,32050165,53.35965877,-116.29314860000001
03/09-23-051-27W4/0,FREE REIN 102 GSPIKE 9-23-51-27,0498969,A08C,Savanna Drilling Corp.,636,21 Dec 2020 05:00:00 AM,St. Albert,0KA2,Free Rein Resources Ltd.,,Drill To LD,2020-12-22,23051274,52,12,2020,23051274,53.4174916,-113.86112949999999
00/03-31-058-01W6/0,TOURMALINE HZ SMOKY 3-31-58-1,0498278,0Z41,Ensign Drilling Inc.,T039,22 Dec 2020 11:30:00 AM,Drayton Valley,A573,Tourmaline Oil Corp.,,Set Surface,2020-12-22,31058016,52,12,2020,31058016,54.0576426,-118.1241572
