WELL ID,WELL NAME,LICENCE,CONTRACTOR BA ID,CONTRACTOR NAME,RIG NUMBER,ACTIVITY DATE,FIELD CENTRE,BA ID,LICENSEE,NEW PROJECTED TOTAL DEPTH,ACTIVITY TYPE,DATE,ATS,WEEK,MONTH,YEAR,ConvDF,Lat,Long
00/15-23-034-03W4/0,RHE 100 PROVOST 15-23-34-3,0498855,0GE9,Tempco Drilling Company Inc.,6,10 Jan 2021 03:30:00 AM,Wainwright,A6W2,Rolling Hills Energy Ltd.,,Drill To LD,2021-01-10,23034034,1,1,2021,23034034,51.93266363,-110.31216270000002
02/13-36-034-03W4/0,RHE 102 PROVOST 13-36-34-3,0496166,A57H,Predator Drilling Inc.,27,10 Jan 2021 09:30:00 AM,Wainwright,A6W2,Rolling Hills Energy Ltd.,,Set Surface,2021-01-10,36034034,1,1,2021,36034034,51.96171461,-110.2885159
F1/04-32-034-08W4/0,TAC 8-6 HZ 1F1 PROVOST 4-32-34-8,0498905,0GE9,Tempco Drilling Company Inc.,9,10 Jan 2021 02:45:00 AM,Wainwright,A5TT,Tamarack Acquisition Corp.,,Drill To LD,2021-01-10,32034084,1,1,2021,32034084,51.96186122,-111.0918757
03/02-04-034-04W5/0,TIMBERROCK HZ 103 GARR 2-4-34-4,0498550,A6PR,Nabors Drilling Canada Limited,8,10 Jan 2021 03:30:00 AM,Red Deer,A16J,TimberRock Energy Corp.,,Drill To LD,2021-01-10,4034045,1,1,2021,4034045,51.88965962,-114.49779050000001
02/01-34-035-09W4/0,KARVE 102 HZ PROVOST 1-34-35-9,0498643,A57H,Predator Drilling Inc.,9,10 Jan 2021 07:05:00 AM,Wainwright,A7BT,Karve Energy Inc.,,Set Surface,2021-01-10,34035094,1,1,2021,34035094,52.0484007,-111.1954761
00/03-04-036-08W4/0,KARVE HZ PROVOST 3-4-36-8,0498887,A57H,Predator Drilling Inc.,9,10 Jan 2021 07:01:00 AM,Wainwright,A7BT,Karve Energy Inc.,,Set Surface,2021-01-10,4036084,1,1,2021,4036084,52.0630441,-111.0764399
02/08-33-041-01W4/0,LONGSHORE HZ 102 HAYTER 8-33-41-1,0499119,0GE9,Tempco Drilling Company Inc.,3,09 Jan 2021 05:15:00 PM,Wainwright,A76W,Longshore Resources Ltd.,,Drill To LD,2021-01-10,33041014,1,1,2021,33041014,52.57204179,-110.0770145
03/04-33-044-07W4/0,SURGE ENERGY HZ 103 WAINWR 4-33-44-7,0498659,A77K,Star Valley Drilling Ltd.,102,09 Jan 2021 04:00:00 PM,Wainwright,0YK4,Surge Energy Inc.,,Drill To LD,2021-01-10,33044074,1,1,2021,33044074,52.8360007,-110.94734440000002
00/16-26-044-10W5/0,TQN HZ FERRIER 16-26-44-10,0497020,0FZ8,Precision Drilling Technology Services Group Inc.,231,10 Jan 2021 06:22:00 AM,Red Deer,A2TG,TAQA North Ltd.,,Drill To LD,2021-01-10,26044105,1,1,2021,26044105,52.82163662,-115.3314513
00/16-14-048-25W4/0,NEP LEDUC-WB 16-14-48-25,0499140,A6EC,Twilight Drilling Ltd.,2,10 Jan 2021 07:30:00 AM,St. Albert,A637,NEP Canada ULC,,Drill To LD,2021-01-10,14048254,1,1,2021,14048254,53.14154111,-113.5372879
03/04-04-060-02W6/0,JUPITER HZ RESTHA 4-4-60-2,0499075,0Y52,Precision Drilling Corporation,527STE,09 Jan 2021 10:30:00 PM,Grande Prairie,A6X1,Jupiter Resources Inc.,,Set Surface,2021-01-10,4060026,1,1,2021,4060026,54.15962199,-118.2252649
00/12-35-063-04W6/0,7GEN HZ KAKWA 12-35-63-4,0498579,A6PR,Nabors Drilling Canada Limited,17,09 Jan 2021 05:45:00 PM,Grande Prairie,A54C,Seven Generations Energy Ltd.,,Set Surface,2021-01-10,35063046,1,1,2021,35063046,54.49428211,-118.47870209999999
04/14-15-064-06W6/0,7GEN HZ 104 KAKWA 14-15-64-6,0498925,0Y52,Precision Drilling Corporation,543,10 Jan 2021 04:15:00 AM,Grande Prairie,A54C,Seven Generations Energy Ltd.,,Drill To LD,2021-01-10,15064066,1,1,2021,15064066,54.53806561,-118.80588840000001
00/03-12-075-25W4/0,SPL 3-13 HZ MARTENH 3-12-75-25,0498557,0Y52,Precision Drilling Corporation,149,08 Jan 2021 09:15:00 PM,St. Albert,A7GR,Spur Petroleum Ltd.,,Resumption,2021-01-10,12075254,1,1,2021,12075254,55.48262047,-113.73214180000001
08/01-16-076-06W4/0,CVE G05I04 LEISMER 1-16-76-6,0498961,0Z41,Ensign Drilling Inc.,141,09 Jan 2021 09:00:00 PM,Bonnyville,A5D4,Cenovus Energy Inc.,,Set Surface,2021-01-10,16076064,1,1,2021,16076064,55.58456271,-110.85977609999999
00/04-27-076-06W5/0,SPL 8-33 HZ MARTEN 4-27-76-6,0498530,0GE9,Tempco Drilling Company Inc.,7,10 Jan 2021 10:00:00 AM,St. Albert,A7GR,Spur Petroleum Ltd.,,Resumption,2021-01-10,27076065,1,1,2021,27076065,55.61399062,-114.8293929
05/01-11-077-05W4/0,MEG DE9I HARDY 1-11-77-5,0490970,0Y55,Akita Drilling Ltd.,25,09 Jan 2021 04:00:00 AM,Bonnyville,0Z9C,MEG Energy Corp.,,Resumption,2021-01-10,11077054,1,1,2021,11077054,55.65716303,-110.6527301
06/15-15-078-10W4/0,ATH L7P6 LEISMER 15-15-78-10,0498941,0Y55,Akita Drilling Ltd.,28,09 Jan 2021 08:00:00 AM,Bonnyville,A28L,Athabasca Oil Corporation,,Drill To LD,2021-01-10,15078104,1,1,2021,15078104,55.75907247,-111.45502749999999
00/08-36-078-13W6/0,BIR 14-6 HZ 102 PCOUPES 8-36-78-13,0499049,0Y52,Precision Drilling Corporation,226,10 Jan 2021 02:00:00 AM,Grande Prairie,A12R,Birchcliff Energy Ltd.,,Drill To LD,2021-01-10,36078136,1,1,2021,36078136,55.80309179,-119.8621707
AB/06-20-093-09W4/0,SYNCRUDE 29ROVCH194190L01 6-20-93-9,0493266,A1YG,Big Country Drilling Ltd.,3,09 Jan 2021 10:15:00 AM,Bonnyville,0362,Syncrude Canada Ltd.,,Drill To LD,2021-01-10,20093094,1,1,2021,20093094,57.08259388,-111.4009027
AB/10-29-093-09W4/0,SYNCRUDE 29ROVCH194090L01 10-29-93-9,0493246,A1YG,Big Country Drilling Ltd.,6,09 Jan 2021 07:30:00 AM,Bonnyville,0362,Syncrude Canada Ltd.,,Drill To LD,2021-01-10,29093094,1,1,2021,29093094,57.09722471,-111.40089679999998
AB/13-29-093-09W4/0,SYNCRUDE 033N01 13-29-93-9,0497101,A1YG,Big Country Drilling Ltd.,10,09 Jan 2021 01:00:00 PM,Bonnyville,0362,Syncrude Canada Ltd.,,Drill To LD,2021-01-10,29093094,1,1,2021,29093094,57.09722471,-111.40089679999998
AB/14-29-093-09W4/0,SYNCRUDE 29ROVCH194087L01 14-29-93-9,0493245,A1YG,Big Country Drilling Ltd.,10,10 Jan 2021 08:00:00 AM,Bonnyville,0362,Syncrude Canada Ltd.,,Drill To LD,2021-01-10,29093094,1,1,2021,29093094,57.09722471,-111.40089679999998
AB/09-30-093-09W4/0,SYNCRUDE 046N01 9-30-93-9,0497132,0Y80,Boart Longyear Canada,41,10 Jan 2021 02:00:00 AM,Bonnyville,0362,Syncrude Canada Ltd.,,Drill To LD,2021-01-10,30093094,1,1,2021,30093094,57.09721681,-111.42771289999999
AB/13-30-093-09W4/0,SYNCRUDE 036N01 13-30-93-9,0497104,0Y80,Boart Longyear Canada,41,09 Jan 2021 09:30:00 AM,Bonnyville,0362,Syncrude Canada Ltd.,,Drill To LD,2021-01-10,30093094,1,1,2021,30093094,57.09721681,-111.42771289999999
AB/05-25-093-10W4/0,SYNCRUDE 053N01 5-25-93-10,0497139,0Y80,Boart Longyear Canada,47,09 Jan 2021 12:00:00 AM,Bonnyville,0362,Syncrude Canada Ltd.,,Drill To LD,2021-01-10,25093104,1,1,2021,25093104,57.097235899999994,-111.4545294
AA/13-25-093-10W4/0,SYNCRUDE 040N01 13-25-93-10,0497108,0Y80,Boart Longyear Canada,47,10 Jan 2021 09:30:00 AM,Bonnyville,0362,Syncrude Canada Ltd.,,Drill To LD,2021-01-10,25093104,1,1,2021,25093104,57.097235899999994,-111.4545294
AA/16-35-093-10W4/0,SYNCRUDE 011N01 16-35-93-10,0497057,0Y80,Boart Longyear Canada,47,09 Jan 2021 05:00:00 PM,Bonnyville,0362,Syncrude Canada Ltd.,,Drill To LD,2021-01-10,35093104,1,1,2021,35093104,57.11168027,-111.48138059999998
