WELL ID,WELL NAME,LICENCE,CONTRACTOR BA ID,CONTRACTOR NAME,RIG NUMBER,ACTIVITY DATE,FIELD CENTRE,BA ID,LICENSEE,NEW PROJECTED TOTAL DEPTH,ACTIVITY TYPE,DATE,ATS,WEEK,MONTH,YEAR,ConvDF,Lat,Long
00/07-28-015-14W4/0,TXNE 9A-34 HZ ALDSON 7-28-15-14,0496918,A08C,Savanna Drilling Corp.,410,29 Jan 2020 06:30:00 PM,Medicine Hat,A7NW,Torxen Energy Ltd.,,Drill To LD,2020-01-30,28015144,5,1,2020,28015144,50.28824352,-111.8605774
00/06-13-020-18W4/0,TXNE 6B-13 DV COUNTESS 6-13-20-18,0497209,A77K,Star Valley Drilling Ltd.,102,30 Jan 2020 05:00:00 PM,Midnapore,A7NW,Torxen Energy Ltd.,,Drill To LD,2020-01-30,13020184,5,1,2020,13020184,50.69578698,-112.35920990000001
00/06-15-034-08W4/0,TAC 1-22 HZ PROVOST 6-15-34-8,0497279,A8AF,Hertz & Paluck Energy Services Inc.,1,30 Jan 2020 11:30:00 AM,Wainwright,A5TT,Tamarack Acquisition Corp.,,Set Surface,2020-01-30,15034084,5,1,2020,15034084,51.91826866,-111.04459150000001
02/10-32-036-07W4/0,KARVE 102 HZ PROVOST 10-32-36-7,0496761,A57H,Predator Drilling Inc.,27,30 Jan 2020 05:54:00 AM,Wainwright,A7BT,Karve Energy Inc.,,Set Surface,2020-01-30,32036074,5,1,2020,32036074,52.13566467,-110.95732279999999
00/09-13-037-08W5/0,WHITECAP HZ FERRIER 9-13-37-8,0497334,0Z41,Ensign Drilling Inc.,434,29 Jan 2020 11:00:00 AM,Red Deer,A5BE,Whitecap Resources Inc.,,Drill To LD,2020-01-30,13037085,5,1,2020,13037085,52.18095352,-115.0015186
00/08-01-042-06W5/0,BONTERRA HZ WILLGR 8-1-42-6,0497327,A2EN,Ironhand Drilling Inc.,1,29 Jan 2020 08:00:00 PM,Red Deer,0XZ4,Bonterra Energy Corp.,,Drill To LD,2020-01-30,1042065,5,1,2020,1042065,52.58864779,-114.72152959999998
02/01-20-049-11W5/0,WHITECAP PEMBINA 1-20-49-11,0496629,0Y52,Precision Drilling Corporation,225,29 Jan 2020 09:00:00 PM,Drayton Valley,A5BE,Whitecap Resources Inc.,,Drill To LD,2020-01-30,20049115,5,1,2020,20049115,53.24331665,-115.5620557
00/06-14-062-19W5/0,CHEVRON HZ FOXCK 6-14-62-19,0493642,0Z41,Ensign Drilling Inc.,144,30 Jan 2020 09:30:00 AM,St. Albert,0045,Chevron Canada Limited,,Resumption,2020-01-30,14062195,5,1,2020,14062195,54.36322843,-116.7265774
00/04-18-066-05W6/0,PARA HZ KARR 4-18-66-5,0495188,A5DR,Fox Drilling Inc.,3,30 Jan 2020 06:00:00 AM,Grande Prairie,0AW4,Paramount Resources Ltd.,,Set Surface,2020-01-30,18066056,5,1,2020,18066056,54.71258226,-118.7304018
03/12-15-073-10W6/0,HUSKY 103 HZ WEMBLEY 12-15-73-10,0496303,A0KC,Horizon Drilling Inc.,37,30 Jan 2020 01:45:00 PM,Grande Prairie,0R46,Husky Oil Operations Limited,,Drill To LD,2020-01-30,15073106,5,1,2020,15073106,55.32332882,-119.43607079999998
AB/13-03-077-06W4/0,CVE A13 HARDY 13-3-77-6,0495611,0Y52,Precision Drilling Corporation,135,30 Jan 2020 04:45:00 PM,Bonnyville,A5D4,Cenovus Energy Inc.,,Drill To LD,2020-01-30,3077064,5,1,2020,3077064,55.64273296,-110.8338999
AB/07-16-077-06W4/0,CVE D7 LEISMER 7-16-77-6,0495648,0Y52,Precision Drilling Corporation,254,29 Jan 2020 09:30:00 PM,Bonnyville,A5D4,Cenovus Energy Inc.,,Drill To LD,2020-01-30,16077064,5,1,2020,16077064,55.67182591,-110.85977749999999
AA/15-18-077-06W4/0,CVE D15 LEISMER 15-18-77-6,0495677,0Y52,Precision Drilling Corporation,180,30 Jan 2020 01:45:00 PM,Bonnyville,A5D4,Cenovus Energy Inc.,,Drill To LD,2020-01-30,18077064,5,1,2020,18077064,55.67181834,-110.9115567
03/04-26-077-11W6/0,BIR HZ 103 PCOUPES 4-26-77-11,0496253,0Y52,Precision Drilling Corporation,226,30 Jan 2020 03:35:00 AM,Grande Prairie,A12R,Birchcliff Energy Ltd.,,Resumption,2020-01-30,26077116,5,1,2020,26077116,55.70141265,-119.57772040000002
AB/11-04-092-08W4/0,SUNCOR LEWIS 11-4-92-8,0497293,0ZF6,McAllister Water Well Drilling Ltd.,1,29 Jan 2020 08:30:00 PM,Bonnyville,0054,Suncor Energy Inc.,,Set Surface,2020-01-30,4092084,5,1,2020,4092084,56.95181762,-111.21314869999999
AA/10-18-092-08W4/0,SUNCOR LEWIS 10-18-92-8,0497286,0ZF6,McAllister Water Well Drilling Ltd.,1,30 Jan 2020 10:30:00 AM,Bonnyville,0054,Suncor Energy Inc.,,Set Surface,2020-01-30,18092084,5,1,2020,18092084,56.9808863,-111.2667682
00/09-22-092-08W4/0,SUNCOR DW LEWIS 9-22-92-8,0497250,A57H,Predator Drilling Inc.,2,30 Jan 2020 03:00:00 AM,Bonnyville,0054,Suncor Energy Inc.,,Set Surface,2020-01-30,22092084,5,1,2020,22092084,56.99534417,-111.1863225
AB/07-30-094-05W4/0,SUNCOR OB240 FIREBAG 7-30-94-5,0496574,0Y52,Precision Drilling Corporation,117,29 Jan 2020 11:30:00 PM,Bonnyville,0054,Suncor Energy Inc.,,Set Surface,2020-01-30,30094054,5,1,2020,30094054,57.18445552,-110.7839142
AB/09-29-094-06W4/0,SUNCOR OB235 FIREBAG 9-29-94-6,0496562,A57H,Predator Drilling Inc.,3,30 Jan 2020 01:00:00 AM,Bonnyville,0054,Suncor Energy Inc.,,Drill To LD,2020-01-30,29094064,5,1,2020,29094064,57.18444447,-110.9180463
00/02-02-096-10W4/0,FHEC 19-GT977-MR1 2-2-96-10,0496939,0Y52,Precision Drilling Corporation,141,29 Jan 2020 10:30:00 PM,Bonnyville,0XP9,Fort Hills Energy Corporation,,Drill To LD,2020-01-30,2096104,5,1,2020,2096104,57.30088165,-111.4962403
AC/16-18-097-09W4/0,FHEC 20-WR687-MR2-PW 16-18-97-9,0497203,A1YG,Big Country Drilling Ltd.,2,30 Jan 2020 10:00:00 AM,Bonnyville,0XP9,Fort Hills Energy Corporation,,Drill To LD,2020-01-30,18097094,5,1,2020,18097094,57.41721682,-111.44215020000001
